[
    {
        "name": "Pet Vet",
        "logo" : "https://cdn.discordapp.com/attachments/1093111469865971773/1093111723923341312/1.png",
        "address": "Jl. K.H. Mas Mansyur No.8A, Jakarta 10220",
        "location" : "106.81641538363445,-6.205327465636911",
        "phoneNumber" : "087882298002",
        "UserId" : 1
    },
    {
        "name": "Mody Pet's Club & RnD Clinic",
        "logo" : "https://cdn.discordapp.com/attachments/1093111469865971773/1093111723671703682/Petshop_Logo_Template.png",
        "address": "Jl. Ciledug Raya No.35, Cipulir, Kec. Kby. Lama, Kota Jakarta Selatan, Daerah Khusus Ibukota Jakarta 12230",
        "location" : "106.77807920876494,-6.237788211708457",
        "phoneNumber" : "(021)27088910",
        "UserId" : 4
    },
    {
        "name": "Pet Avenue",
        "logo" : "https://cdn.discordapp.com/attachments/1093111469865971773/1093111723382280232/Black_Yellow_Pet_Care_Logo.png",
        "address": "Jl. Radio Dalam Raya No.86, Gandaria Utara, Jakarta Selatan, 12140",
        "location" : "106.78920751750725,-6.259753678246793",
        "phoneNumber" : "0812-1212-9775",
        "UserId" : 5
    },
    {
        "name": "Hoh Pet Clinic",
        "logo" : "https://i.pinimg.com/originals/95/e7/b5/95e7b509dd285cbf25140ebf22806383.gif",
        "address": "Jl.Veteran, Gandaria Utara, Jakarta Selatan, 12140",
        "location" : "106.78920751750725,-6.259753678246793",
        "phoneNumber" : "0812-1212-9775",
        "UserId" : 7
    },
    {
        "name": "Metro Pet",
        "logo" : "https://cdn.discordapp.com/attachments/1093111469865971773/1093111723155783760/Purple_Minimalist_Pet_Care_Logo.png",
        "address": "Jl.Metro Alam IV, Jakarta Selatan, 12140",
        "location" : "106.78920751750725,-6.259753678246793",
        "phoneNumber" : "0812-1212-9775",
        "UserId" : 8
    },
    {
        "name": "Patterson Petshop",
        "logo" : "https://cdn.discordapp.com/attachments/1093111469865971773/1093111724875448320/2.png",
        "address": "Jl. Arteri Pd. Indah No.7, Jakarta Selatan, 12140",
        "location" : "106.78920751750725,-6.259753678246793",
        "phoneNumber" : "0812-1212-9775",
        "UserId" : 9
    },
    {
        "name": "DinDin Petshop",
        "logo" : "https://cdn.discordapp.com/attachments/1093111469865971773/1093111724191780864/Lilac_Cat_Pet_Shops_Logo.png",
        "address": "Jl.Metro Pondok Indah, Jakarta, 12140",
        "location" : "106.78920751750725,-6.259753678246793",
        "phoneNumber" : "0812-1212-9775",
        "UserId" : 10
    },
    {
        "name": "Chidi Eze Petshop",
        "logo" : "https://cdn.discordapp.com/attachments/1093111469865971773/1093111724573478952/Brown_Aesthetic_Minimalist_Petshop_Logo.png",
        "address": "Jl.Alam Segar I, Jakarta, 12140",
        "location" : "106.78920751750725,-6.259753678246793",
        "phoneNumber" : "0812-1212-9775",
        "UserId" : 11
    }
   
]










